{"type":"FeatureCollection","features":[{"properties":{"title":"gol","address":"street27","tozihat":"no"},"type":"Feature","geometry":{"type":"Point","coordinates":[55.342345,23.567892]}},{"properties":{"title":"hamid","address":"street99","tozihat":"2zari"},"type":"Feature","geometry":{"type":"Point","coordinates":[55.342345,24.567892]}},{"properties":{"title":"zahra","address":"street99","tozihat":"2zari"},"type":"Feature","geometry":{"type":"Point","coordinates":[55.342345,21.567892]}},{"properties":{"title":"zari","address":"street99","tozihat":"2zari"},"type":"Feature","geometry":{"type":"Point","coordinates":[55.342345,25.567892]}},{"properties":{"title":"karim","address":"street99","tozihat":"2zari"},"type":"Feature","geometry":{"type":"Point","coordinates":[55.342345,26.567892]}}]}
