{"type":"FeatureCollection","features":[{"properties":{"title":"\u0647\u062a\u0644 \u0627\u0645\u06cc\u062f","address":"\u062e\u0631\u0645 \u0622\u0628\u0627\u062f \u062e\u06cc\u0627\u0628\u0627\u0646 \u0622\u0632\u0627\u062f\u06cc \u0645\u062c\u062a\u0645\u0639 \u0646\u06af\u06cc\u0646","tozihat":"\u0633\u0646\u0633\u0648\u0631 \u062d\u0631\u0627\u0631\u062a\u06cc \u062f\u0631 \u067e\u0627\u0631\u06a9\u06cc\u0646\u06af \u0641\u0639\u0627\u0644 \u06af\u0631\u062f\u06cc\u062f\u0647 \u0627\u0633\u062a","mobile":"09393188254"},"type":"Feature","geometry":{"type":"Point","coordinates":[55.342345,23.567892]}},{"properties":{"title":"hamid","address":"street99","tozihat":"2zari","mobile":"0942"},"type":"Feature","geometry":{"type":"Point","coordinates":[55.342345,24.567892]}},{"properties":{"title":"zahra","address":"street99","tozihat":"2zari","mobile":"0943"},"type":"Feature","geometry":{"type":"Point","coordinates":[55.342345,21.567892]}},{"properties":{"title":"zari","address":"street99","tozihat":"2zari","mobile":"0978"},"type":"Feature","geometry":{"type":"Point","coordinates":[55.342345,25.567892]}},{"properties":{"title":"karim","address":"street99","tozihat":"2zari","mobile":"0944"},"type":"Feature","geometry":{"type":"Point","coordinates":[55.342345,26.567892]}},{"properties":{"title":"zari","address":"khoone zari","tozihat":"tekrary","mobile":"0922"},"type":"Feature","geometry":{"type":"Point","coordinates":[55.34234,29.567892]}}]}